{
"type": "FeatureCollection",
                                                                                
"features": [
{ "type": "Feature", "properties": { "Latitude": "50.93411", "Longitude": " -1.79376", "Name": " Whitsbury Road" }, "geometry": null }
,
{ "type": "Feature", "properties": { "Latitude": "50.93162", "Longitude": " -1.80089", "Name": " Marl Lane" }, "geometry": null }
,
{ "type": "Feature", "properties": { "Latitude": "50.93584", "Longitude": " -1.79205", "Name": " Pennys Lane" }, "geometry": null }
,
{ "type": "Feature", "properties": { "Latitude": "50.92620", "Longitude": " -1.79792", "Name": " Reeder Close" }, "geometry": null }
,
{ "type": "Feature", "properties": { "Latitude": "50.92700", "Longitude": " -1.78654", "Name": " Southampton Road" }, "geometry": null }
,
{ "type": "Feature", "properties": { "Latitude": "50.93027", "Longitude": " -1.79711", "Name": " 37 Normandy Way" }, "geometry": null }
,
{ "type": "Feature", "properties": { "Latitude": "50.92976", "Longitude": " -1.79720", "Name": " 29 Normandy Way" }, "geometry": null }
,
{ "type": "Feature", "properties": { "Latitude": "50.92252", "Longitude": " -1.79609", "Name": " Drummond House" }, "geometry": null }
,
{ "type": "Feature", "properties": { "Latitude": "50.93692", "Longitude": " -1.77773", "Name": " NE Fordingbridge next to Avon" }, "geometry": null }
,
{ "type": "Feature", "properties": { "Latitude": "50.92072", "Longitude": " -1.79724", "Name": " Frog Lane" }, "geometry": null }
,
{ "type": "Feature", "properties": { "Latitude": "50.93508", "Longitude": " -1.77936", "Name": " NE Fordingbridge next to path" }, "geometry": null }
,
{ "type": "Feature", "properties": { "Latitude": "50.93133", "Longitude": " -1.79463", "Name": " Parsonage Cottage Green Lane" }, "geometry": null }
,
{ "type": "Feature", "properties": { "Latitude": "50.93025", "Longitude": " -1.79354", "Name": " Green Lane" }, "geometry": null }
,
{ "type": "Feature", "properties": { "Latitude": "50.92216", "Longitude": " -1.79444", "Name": " S of church" }, "geometry": null }
,
{ "type": "Feature", "properties": { "Latitude": "50.92746", "Longitude": " -1.79522", "Name": " Westgrove" }, "geometry": null }
,
{ "type": "Feature", "properties": { "Latitude": "50.91442", "Longitude": " -1.79086", "Name": " N of Bickton Mill" }, "geometry": null }
,
{ "type": "Feature", "properties": { "Latitude": "50.91262", "Longitude": " -1.79087", "Name": " S of Bickton Mill" }, "geometry": null }
,
{ "type": "Feature", "properties": { "Latitude": "50.93688", "Longitude": " -1.78551", "Name": " A338 slip road" }, "geometry": null }
,
{ "type": "Feature", "properties": { "Latitude": "50.92288", "Longitude": " -1.79822", "Name": " Padstow Place" }, "geometry": null }
,
{ "type": "Feature", "properties": { "Latitude": "50.92524", "Longitude": " -1.80931", "Name": " Ashford Road" }, "geometry": null }
,
{ "type": "Feature", "properties": { "Latitude": "50.92720", "Longitude": " -1.79692", "Name": " Station Road" }, "geometry": null }

]
}
